,stop_id,stop_code,stop_name,stop_desc,stop_lat,stop_lon,zone_id,City,County
1,2,95002,ABSECON,,39.424333000000004,-74.502094,333,Absecon,Atlantic County
2,3,95003,ALLENDALE,,41.030902000000005,-74.130957,2893,Allendale,Bergen County
3,4,95004,ALLENHURST,,40.237659,-74.00676899999999,5453,Allenhurst,Monmouth County
4,5,95005,ANDERSON STREET,,40.894458,-74.04378100000001,1357,Hackensack,Bergen County
5,6,95006,ANNANDALE,,40.645173,-74.878569,5197,NA,Hunterdon County
6,8,95008,ASBURY PARK,,40.215359,-74.014786,5453,Asbury Park,Monmouth County
7,9,95009,ATCO,,39.783547,-74.907588,4429,Atco,Camden County
8,10,95010,ATLANTIC CITY,,39.363299,-74.441486,77,Atlantic City,Atlantic County
9,11,95011,AVENEL,,40.57762,-74.27753,2381,Woodbridge Township,Middlesex County
10,12,95012,BASKING RIDGE,,40.711378,-74.55527,4173,Basking Ridge,Somerset County
11,13,95013,BAY HEAD,,40.077178,-74.046183,5965,Toms River,Ocean County
12,14,95014,BAY STREET,,40.808178000000005,-74.208681,1357,Montclair,Essex County
13,15,95015,BELMAR,,40.18059,-74.027301,5709,Belmar,Monmouth County
14,17,95017,BERKELEY HEIGHTS,,40.682345,-74.442649,2893,Berkeley Heights,Union County
15,18,95018,BERNARDSVILLE,,40.716845,-74.571023,4173,Bernardsville,Somerset County
16,19,95019,BLOOMFIELD,,40.792709,-74.20004300000001,1101,Bloomfield,Essex County
17,20,95020,BOONTON,,40.903378000000004,-74.407736,3661,Boonton,Morris County
18,21,95021,BOUND BROOK,,40.560928999999994,-74.530617,3661,Bound Brook,Somerset County
19,22,95022,BRADLEY BEACH,,40.203751000000004,-74.018891,5453,Bradley Beach,Monmouth County
20,23,95023,BRICK CHURCH,,40.765134,-74.218612,1101,East Orange,Essex County
21,24,95024,BRIDGEWATER,,40.559906,-74.551741,3917,Bridgewater Township,Somerset County
22,25,95025,BROADWAY,,40.922505,-74.115236,1613,Fair Lawn,Bergen County
23,26,95026,CAMPBELL HALL,,41.450917,-74.266554,5709,Campbell Hall,Orange County
24,27,95027,CHATHAM,,40.740137,-74.384812,2637,Chatham,Morris County
25,28,95028,CHERRY HILL,,39.928447,-75.041661,5197,Cherry Hill,Camden County
26,29,95029,CLIFTON,,40.867998,-74.153203,1357,Clifton,Passaic County
27,30,95030,CONVENT,,40.77904,-74.443435,3149,Morris Township,Morris County
28,31,95031,ROSELLE PARK,,40.667152,-74.26632,1613,Roselle Park,Union County
29,32,95032,CRANFORD,,40.655522999999995,-74.303226,1869,Cranford,Union County
30,33,95033,DELAWANNA,,40.831369,-74.13126199999999,845,Clifton,Passaic County
31,34,95034,DENVILLE,,40.8839,-74.481513,4173,Denville,Morris County
32,35,95035,DOVER,,40.883415,-74.555887,4429,Dover,Morris County
33,36,95036,DUNELLEN,,40.590869,-74.463043,3149,Dunellen,Middlesex County
34,37,95037,EAST ORANGE,,40.760977000000004,-74.210464,1101,East Orange,Essex County
35,38,95038,EDISON STATION,,40.519148,-74.410972,3405,Edison,Middlesex County
36,39,95039,EGG HARBOR,,39.526441,-74.648028,1613,Egg Harbor City,Atlantic County
37,40,95040,ELBERON,,40.265291999999995,-73.99762,5197,Long Branch,Monmouth County
38,41,95041,ELIZABETH,,40.667857,-74.215174,1357,Elizabeth,Union County
39,42,95042,EMERSON,,40.975035999999996,-74.02747099999999,2125,Emerson,Bergen County
40,43,95043,ESSEX STREET,,40.878972999999995,-74.051893,1357,Hackensack,Bergen County
41,44,95044,FANWOOD,,40.641059999999996,-74.385003,2381,Fanwood,Union County
42,45,95045,FAR HILLS,,40.685712,-74.63373399999999,4429,Far Hills,Somerset County
43,46,95046,GARFIELD,,40.866669,-74.10556,1101,Garfield,Bergen County
44,47,95047,GARWOOD,,40.652569,-74.324794,2125,Garwood,Union County
45,48,95048,GILLETTE,,40.678253000000005,-74.468317,3149,Long Hill,Morris County
46,49,95049,GLADSTONE,,40.720284,-74.666371,4685,NA,Somerset County
47,50,95050,GLEN RIDGE,,40.80059,-74.204655,1101,Glen Ridge,Essex County
48,51,95051,GLEN ROCK BORO HALL,,40.96137,-74.1293,2125,Glen Rock,Bergen County
49,52,95052,GLEN ROCK MAIN LINE,,40.962206,-74.133485,2125,Glen Rock,Bergen County
50,54,95054,HACKETTSTOWN,,40.851444,-74.835352,4941,Hackettstown,Warren County
51,55,95055,HAMMONTON,,39.631673,-74.79946,2893,Hammonton,Atlantic County
52,57,95057,HARRIMAN,,41.293354,-74.13987,5197,Harriman,Orange County
53,58,95058,HAWTHORNE,,40.942539000000004,-74.152411,1869,Hawthorne,Passaic County
54,59,95059,HAZLET,,40.415385,-74.190393,4173,Hazlet,Monmouth County
55,60,95060,HIGH BRIDGE,,40.666884,-74.895863,5453,High Bridge,Hunterdon County
56,61,95061,HIGHLAND AVENUE,,40.766863,-74.243741,1357,City of Orange,Essex County
57,62,95062,HILLSDALE,,41.002414,-74.041033,2381,Hillsdale,Bergen County
58,63,95063,HOBOKEN,,40.734843,-74.028046,336,Hoboken,Hudson County
59,64,95064,HOHOKUS,,40.997369,-74.11352099999999,2637,Ho-Ho-Kus,Bergen County
60,66,95066,KINGSLAND,,40.810121,-74.117334,589,Lyndhurst,Bergen County
61,67,95067,LAKE HOPATCONG,,40.904219,-74.665697,4941,Roxbury Township,Morris County
62,68,95068,LEBANON,,40.636905,-74.835766,5197,Lebanon,Hunterdon County
63,69,95069,LINCOLN PARK,,40.924138,-74.301826,2637,Wayne,Morris County
64,70,95070,LINDEN,,40.629484999999995,-74.251772,1869,Linden,Union County
65,71,95071,LINDENWOLD,,39.833809,-75.000314,4941,Lindenwold,Camden County
66,72,95072,LITTLE FALLS,,40.880669,-74.235372,2125,Little Falls,Passaic County
67,73,95073,LITTLE SILVER,,40.326715,-74.041054,4941,Little Silver,Monmouth County
68,74,95074,LONG BRANCH,,40.297145,-73.988331,5197,Long Branch,Monmouth County
69,75,95075,LYNDHURST,,40.816475,-74.12416400000001,589,Lyndhurst,Bergen County
70,76,95076,LYONS,,40.684844,-74.54947,3661,NA,Somerset County
71,77,95077,MADISON,,40.757028000000005,-74.41510500000001,2893,Madison,Morris County
72,78,95078,MAHWAH,,41.094415999999995,-74.14662,3661,Mahwah,Bergen County
73,79,95079,MANASQUAN,,40.120573,-74.047688,5965,Manasquan,Monmouth County
74,81,95081,MAPLEWOOD,,40.731149,-74.27542700000001,1613,Maplewood,Essex County
75,83,95083,METROPARK,,40.56864,-74.329394,2637,Iselin,Middlesex County
76,84,95084,METUCHEN,,40.540735999999995,-74.360671,2893,Metuchen,Middlesex County
77,85,95085,MIDDLETOWN NJ,,40.38978,-74.11613100000001,4429,Middletown,Monmouth County
78,86,95086,MIDDLETOWN NY,,41.457488,-74.37039,5965,Scotchtown,Orange County
79,87,95087,MILLBURN,,40.725621999999994,-74.30375500000001,1869,NA,Essex County
80,88,95088,MILLINGTON,,40.673515,-74.523606,3661,Long Hill,Morris County
81,89,95089,MONTCLAIR HEIGHTS,,40.857535999999996,-74.2025,1613,Montclair,Essex County
82,90,95090,MONTVALE,,41.040879,-74.029152,2637,Montvale,Bergen County
83,91,95091,MORRIS PLAINS,,40.828639,-74.478197,4173,Morris Plains,Morris County
84,92,95092,MORRISTOWN,,40.797113,-74.474086,3661,Morristown,Morris County
85,93,95093,MOUNT OLIVE,,40.907376,-74.730653,4941,Mount Olive Township,Morris County
86,94,95094,MOUNT TABOR,,40.875904,-74.481915,4173,Denville,Morris County
87,95,95095,MOUNTAIN AVENUE,,40.848715000000006,-74.20530600000001,1613,Montclair,Essex County
88,96,95096,MOUNTAIN LAKES,,40.885946999999994,-74.433604,3661,Mountain Lakes,Morris County
89,97,95097,MOUNTAIN STATION,,40.755367,-74.253024,1357,South Orange,Essex County
90,98,95098,MOUNTAIN VIEW,,40.914402,-74.268158,2381,Wayne,Passaic County
91,99,95099,MURRAY HILL,,40.69507,-74.403134,2637,New Providence,Union County
93,101,95101,NETCONG,,40.897554,-74.707317,4941,Netcong,Morris County
94,102,95102,NETHERWOOD,,40.629148,-74.40345500000001,2637,Plainfield,Union County
95,103,95103,NEW BRUNSWICK,,40.497278,-74.445751,3661,New Brunswick,Middlesex County
96,104,95104,NEW PROVIDENCE,,40.712022,-74.386501,2381,Summit,Union County
97,105,95105,NEW YORK PENN STATION,,40.750046000000005,-73.992358,329,New York,New York County
98,106,95106,NEWARK BROAD ST,,40.747621,-74.171943,589,Newark,Essex County
99,107,95107,NEWARK PENN STATION,,40.734221000000005,-74.16455400000001,336,Newark,Essex County
100,108,95108,NORTH BRANCH,,40.59202,-74.683802,4685,Branchburg,Somerset County
101,109,95109,NORTH ELIZABETH,,40.680265000000006,-74.206165,1357,Elizabeth,Union County
102,110,95110,NEW BRIDGE LANDING,,40.910856,-74.035044,1613,River Edge,Bergen County
103,111,95111,ORADELL,,40.953478000000004,-74.029983,1869,Oradell,Bergen County
104,112,95112,ORANGE,,40.771883,-74.233103,1101,City of Orange,Essex County
105,113,95113,OTISVILLE,,41.471786,-74.529211,6221,NA,Orange County
106,114,95114,PARK RIDGE,,41.032305,-74.036164,2637,Park Ridge,Bergen County
107,115,95115,PASSAIC,,40.849413,-74.13393,1101,Passaic,Passaic County
108,116,95116,PATERSON,,40.914887,-74.16733,1613,Paterson,Passaic County
109,117,95117,PEAPACK,,40.708794,-74.658469,4685,NA,Somerset County
111,119,95119,PERTH AMBOY,,40.509398,-74.273752,3149,Perth Amboy,Middlesex County
112,120,95120,PLAINFIELD,,40.618425,-74.420163,2893,Plainfield,Union County
113,121,95121,PLAUDERVILLE,,40.884916,-74.102695,1357,Garfield,Bergen County
114,122,95122,POINT PLEASANT,,40.092718,-74.048191,5965,Point Pleasant Beach,Ocean County
115,123,95123,PORT JERVIS,,41.374899,-74.694622,6477,Port Jervis,Orange County
116,124,95124,PRINCETON,,40.342088000000004,-74.65887,25421,Princeton,Mercer County
117,125,95125,PRINCETON JCT.,,40.316316,-74.62375300000001,4941,West Windsor Township,Mercer County
118,126,95126,RADBURN,,40.939916,-74.12161400000001,1613,Fair Lawn,Bergen County
119,127,95127,RAHWAY,,40.606338,-74.27669200000001,2125,Rahway,Union County
120,128,95128,RAMSEY,,41.056422,-74.14187700000001,3149,Ramsey,Bergen County
121,129,95129,RARITAN,,40.571007,-74.634364,4429,Raritan,Somerset County
122,130,95130,RED BANK,,40.348284,-74.074538,4685,Red Bank,Monmouth County
123,131,95131,RIDGEWOOD,,40.980629,-74.120592,2381,Ridgewood,Bergen County
124,132,95132,RIVER EDGE,,40.935146,-74.02914,1613,River Edge,Bergen County
125,134,95134,RUTHERFORD,,40.828247999999995,-74.100563,845,East Rutherford,Bergen County
126,135,95135,SALISBURY MILLS-CORNWALL,,41.437073,-74.101871,5453,Beaverdam Lake-Salisbury Mills,Orange County
127,136,95136,SHORT HILLS,,40.725249,-74.32375400000001,1869,NA,Essex County
129,138,95138,SOMERVILLE,,40.566075,-74.61397,4429,Somerville,Somerset County
130,139,95139,SOUTH AMBOY,,40.484308,-74.28014,3405,South Amboy,Middlesex County
131,140,95140,SOUTH ORANGE,,40.745952,-74.260538,1357,South Orange,Essex County
132,141,95141,SPRING LAKE,,40.150557,-74.035481,5709,Spring Lake,Monmouth County
134,143,95143,STIRLING,,40.674580999999996,-74.493723,3661,Long Hill,Morris County
136,145,95145,SUMMIT,,40.716549,-74.357807,2381,Summit,Union County
137,146,95146,TETERBORO,,40.864858,-74.062676,1101,Hasbrouck Heights,Bergen County
138,147,95147,TOWACO,,40.922809,-74.34384200000001,2893,Montville,Morris County
139,148,95148,TRENTON TRANSIT CENTER,,40.218515000000004,-74.753926,5709,Trenton,Mercer County
140,149,95149,TUXEDO,,41.194208,-74.18446,3917,NA,Orange County
141,150,95150,UPPER MONTCLAIR,,40.842003999999996,-74.20936800000001,1357,Montclair,Essex County
142,151,95151,WALDWICK,,41.012734,-74.123412,2637,Waldwick,Bergen County
143,152,95152,WALNUT STREET,,40.817218,-74.20963,1357,Montclair,Essex County
144,153,95153,WATCHUNG AVENUE,,40.829516,-74.20693399999999,1357,Montclair,Essex County
145,154,95154,WATSESSING AVENUE,,40.782742999999996,-74.198451,1101,Bloomfield,Essex County
146,155,95155,WESTFIELD,,40.649448,-74.347629,2125,Westfield,Union County
147,156,95156,WESTWOOD,,40.990817,-74.032696,2381,Westwood,Bergen County
148,157,95157,WHITE HOUSE,,40.615613,-74.77065999999999,4941,NA,Hunterdon County
149,158,95158,WOODBRIDGE,,40.55661,-74.277751,2637,Woodbridge Township,Middlesex County
150,159,95159,WOODCLIFF LAKE,,41.021078,-74.040775,2637,Woodcliff Lake,Bergen County
151,160,95160,WOOD-RIDGE,,40.843973999999996,-74.07871899999999,845,Wood-Ridge,Bergen County
152,6900,30770,MILITARY PARK LIGHT RAIL STATION,,40.737449,-74.17088299999999,336,Newark,Essex County
153,6907,30763,DAVENPORT AVENUE LIGHT RAIL STATION,,40.77239,-74.17827199999999,336,Newark,Essex County
154,6957,30767,NORFOLK STREET LIGHT RAIL STATION,,40.745319,-74.183033,336,Newark,Essex County
155,6966,30765,PARK AVENUE NEWARK LIGHT RAIL STATION,,40.758559999999996,-74.18494100000001,336,Newark,Essex County
156,6995,30768,WARREN STREET LIGHT RAIL STATION,,40.742439000000005,-74.18118299999999,336,Newark,Essex County
157,6997,30769,WASHINGTON STREET LIGHT RAIL STATION,,40.738347,-74.174081,336,Newark,Essex County
158,9878,30825,PORT IMPERIAL HBLR STATION,,40.775919,-74.01292099999999,336,Weehawken,Hudson County
159,14984,30764,BLOOMFIELD AVENUE LIGHT RAIL STATION,,40.76546,-74.179863,336,Newark,Essex County
160,14986,30766,ORANGE STREET LIGHT RAIL STATION,,40.750628999999996,-74.184951,336,Newark,Essex County
161,17699,30826,LINCOLN HARBOR LIGHT RAIL STATION,,40.761399,-74.024,336,Weehawken,Hudson County
162,26316,30762,BRANCH BROOK PARK LIGHT RAIL STATION,,40.779638,-74.174752,336,Newark,Essex County
163,26326,30771,PENN STATION LIGHT RAIL DEPARTURE,,40.734809999999996,-74.16360300000001,336,Newark,Essex County
164,32905,95163,HAMILTON,,40.255309000000004,-74.70411999999999,5197,Hamilton Township,Mercer County
165,32906,95065,JERSEY AVE.,,40.476912,-74.467363,3661,New Brunswick,Middlesex County
166,36994,30833,EXCHANGE PLACE LIGHT RAIL STATION,,40.716009,-74.034092,336,Jersey City,Hudson County
167,36995,30834,ESSEX STREET LIGHT RAIL STATION,,40.712838,-74.036082,336,Jersey City,Hudson County
168,36996,30835,MARIN BOULEVARD LIGHT RAIL STATION,,40.714428000000005,-74.04324100000001,336,Jersey City,Hudson County
169,36997,30836,JERSEY AVENUE LIGHT RAIL STATION,,40.714978,-74.048491,336,Jersey City,Hudson County
170,36998,30837,LIBERTY STATE PARK-RIDE LIGHT RAIL STA,,40.710378000000006,-74.055812,336,Jersey City,Hudson County
171,37002,30841,RICHARD STREET LIGHT RAIL STATION,,40.699118,-74.078643,336,Jersey City,Hudson County
172,37003,30842,DANFORTH AVENUE LIGHT RAIL STATION,,40.692357,-74.087262,336,Jersey City,Hudson County
173,37004,30843,45TH STREET LIGHT RAIL STATION,,40.678670000000004,-74.101673,336,Bayonne,Hudson County
174,37005,30844,34TH STREET LIGHT RAIL STATION,,40.671778,-74.107493,336,Bayonne,Hudson County
175,37169,95082,ABERDEEN-MATAWAN,,40.420161,-74.223702,3917,Matawan,Monmouth County
176,37376,30832,HARBORSIDE LIGHT RAIL STATION,,40.719519,-74.034003,336,Jersey City,Hudson County
177,37377,30831,HARSIMUS COVE LIGHT RAIL STATION,,40.722668,-74.03728100000001,336,Jersey City,Hudson County
178,37378,30830,NEWPORT LIGHT RAIL STATION,,40.726819,-74.036233,336,Jersey City,Hudson County
179,37953,95164,NEWARK AIRPORT RAILROAD STATION,,40.704415000000004,-74.190717,1345,Newark,Essex County
180,38064,30540,SILVER LAKE LIGHT RAIL STATION,,40.780287,-74.18034300000001,336,Belleville,Essex County
181,38065,30539,GROVE STREET LIGHT RAIL STATION,,40.780317,-74.187931,336,Bloomfield,Essex County
182,38081,95165,MSU,,40.869782,-74.197439,1613,Little Falls,Passaic County
183,38105,95166,UNION,,40.683663,-74.238605,1357,Union,Union County
184,38174,95167,FRANK R LAUTENBERG SECAUCUS LOWER LEVEL,,40.761188,-74.07582099999999,333,Secaucus,Hudson County
185,38187,95168,FRANK R LAUTENBERG SECAUCUS UPPER LEVEL,,40.761188,-74.07582099999999,329,Secaucus,Hudson County
186,38229,30845,22ND STREET LIGHT RAIL STATION,,40.661277,-74.11641,336,Bayonne,Hudson County
187,38291,30855,TRENTON TRANSIT CENTER LIGHT RAIL STA,,40.218348,-74.75519399999999,336,Trenton,Mercer County
188,38292,30856,HAMILTON AVENUE LIGHT RAIL STATION,,40.211928,-74.755882,336,Trenton,Mercer County
189,38293,30857,CASS STREET LIGHT RAIL STATION,,40.205409,-74.754313,336,Trenton,Mercer County
190,38294,30858,BORDENTOWN LIGHT RAIL STATION,,40.148109999999996,-74.71627099999999,336,Bordentown,Burlington County
191,38295,30859,ROEBLING LIGHT RAIL STATION,,40.116909,-74.770202,336,Florence Township,Burlington County
192,38296,30860,FLORENCE LIGHT RAIL STATION,,40.100048,-74.805112,336,Florence Township,Burlington County
193,38297,30861,BURLINGTON TOWNE CTR LIGHT RAIL STATION,,40.077358000000004,-74.859421,336,Burlington,Burlington County
194,38298,30862,BURLINGTON SOUTH LIGHT RAIL STATION,,40.074558,-74.868981,336,Burlington,Burlington County
195,38299,30863,BEVERLY/EDGEWATER PARK LIGHT RAIL STA,,40.06112,-74.915131,336,Beverly,Burlington County
196,38300,30864,DELANCO LIGHT RAIL STATION,,40.048068,-74.95028,336,Delanco,Burlington County
197,38301,30865,RIVERSIDE LIGHT RAIL STATION,,40.039219,-74.958842,336,Riverside,Burlington County
198,38302,30866,CINNAMINSON LIGHT RAIL STATION,,40.016557,-74.999942,336,Cinnaminson,Burlington County
199,38303,30867,RIVERTON LIGHT RAIL STATION,,40.008939,-75.013082,336,Riverton,Burlington County
200,38304,30868,PALMYRA LIGHT RAIL STATION,,40.004659000000004,-75.020391,336,Palmyra,Burlington County
201,38305,30869,ROUTE 73/PENNSAUKEN LIGHT RAIL STATION,,39.993109000000004,-75.03961,336,Pennsauken Township,Camden County
202,38306,30870,36TH STREET LIGHT RAIL STATION,,39.96096,-75.079622,336,Pennsauken Township,Camden County
203,38307,30871,WALTER RAND TRANSPORTATION CTR,,39.943258,-75.12021,336,Camden,Camden County
204,38308,30872,COOPER STREET/RUTGERS LIGHT RAIL STATION,,39.947598,-75.12406999999999,336,Camden,Camden County
205,38309,30873,AQUARIUM LIGHT RAIL STATION,,39.945658,-75.128682,336,Camden,Camden County
206,38310,30874,ENTERTAINMENT CENTER LIGHT RAIL STATION,,39.940940000000005,-75.128473,336,Camden,Camden County
207,38417,95170,RAMSEY ROUTE 17 STATION,,41.07513,-74.145485,3149,Ramsey,Bergen County
208,38441,30828,2ND STREET LIGHT RAIL STATION,,40.74174,-74.04282099999999,336,Jersey City,Hudson County
209,38442,30827,9TH STREET LIGHT RAIL STATION,,40.748867,-74.038522,336,Jersey City,Hudson County
210,38578,30824,BERGENLINE AVE,,40.782225,-74.02227099999999,336,Union City,Hudson County
211,38579,30823,TONNELLE AVENUE LIGHT RAIL STATION,,40.78733,-74.031263,336,North Bergen,Hudson County
212,39130,30775,BROAD STREET LIGHT RAIL STATION,,40.747209000000005,-74.17151,336,Newark,Essex County
213,39131,30774,RIVERFRONT STADIUM LIGHT RAIL STATION,,40.74559,-74.169202,336,Newark,Essex County
214,39132,30776,WASHINGTON PARK LIGHT RAIL STATION,,40.743938,-74.169853,336,Newark,Essex County
215,39133,30773,ATLANTIC STREET LIGHT RAIL STATION,,40.74416,-74.168491,336,Newark,Essex County
216,39134,30772,NJPAC/CENTRE STREET LIGHT RAIL STATION,,40.739498,-74.16558,336,Newark,Essex County
217,39348,30829,HOBOKEN TERMINAL LIGHT RAIL STATION,,40.734059,-74.02919200000001,336,Hoboken,Hudson County
218,39472,95171,MOUNT ARLINGTON,,40.89659,-74.632731,4941,Roxbury Township,Morris County
219,39635,95172,WAYNE/ROUTE 23 TRANSIT CENTER [RR],,40.900254,-74.256971,2381,Wayne,Passaic County
220,42545,31061,PENN STATION LIGHT RAIL ARRIVAL,,40.734809999999996,-74.16360300000001,0,Newark,Essex County
221,42673,31145,8TH STREET LIGHT RAIL STATION,,40.654298,-74.129142,0,Bayonne,Hudson County
222,43288,31898,PENNSAUKEN TRANSIT CENTER LIGHT RAIL STA,,39.978276,-75.061962,336,Pennsauken Township,Camden County
223,43298,95183,PENNSAUKEN TRANSIT CENTER,,39.977769,-75.061796,5197,Pennsauken Township,Camden County
224,43599,95184,WESMONT,,40.854979,-74.096951,1101,Wood-Ridge,Bergen County
